%time,field.x,field.y,field.z
1668719010623511552,-111.0,-111.0,-111.0
1668719010657598733,0.03213852984806172,0.5851614116746676,0.036597565478934266
1668719010692560672,-111.0,-111.0,-111.0
1668719010725864171,-111.0,-111.0,-111.0
1668719010758867263,0.028879129594102257,0.5900440819889089,0.03661337229485798
1668719010791987419,0.0321561731022348,0.5845192309916974,0.038538732044110735
1668719010823945283,0.025712337459772167,0.5876969283156159,0.0325023547206133
1668719010857933759,-111.0,-111.0,-111.0
1668719010892961263,-111.0,-111.0,-111.0
1668719010925936937,0.031324233408040913,0.5831577675841353,0.03655911776045343
1668719010960735321,0.031304431645128854,0.5837998033955814,0.034615403848378926
1668719010993421077,0.02654909468920665,0.5890588192992081,0.034487871002914
1668719011025479078,0.026569346315680142,0.5884164492258759,0.03643076772480117
1668719011058680295,0.03213852984806172,0.5851614116746676,0.036597565478934266
1668719011090844869,-111.0,-111.0,-111.0
1668719011123142004,0.026088934757175303,0.5919937264622158,0.035560232206129805
1668719011158242464,0.02885806115968188,0.5906864704739895,0.03467077874770865
1668719011190135240,0.029344018876019583,0.5871098302763892,0.035542772697701265
1668719011221874475,-111.0,-111.0,-111.0
1668719011257010221,-111.0,-111.0,-111.0
1668719011288511276,-111.0,-111.0,-111.0
1668719011320866584,-111.0,-111.0,-111.0
1668719011353311538,-111.0,-111.0,-111.0
1668719011387823104,-111.0,-111.0,-111.0
1668719011420688152,-111.0,-111.0,-111.0
1668719011452942132,-111.0,-111.0,-111.0
1668719011487633466,-111.0,-111.0,-111.0
1668719011519626140,-111.0,-111.0,-111.0
1668719011553490161,-111.0,-111.0,-111.0
1668719011586386680,-111.0,-111.0,-111.0
1668719011619163274,-111.0,-111.0,-111.0
1668719011654140472,-111.0,-111.0,-111.0
1668719011686915636,-111.0,-111.0,-111.0
1668719011723186016,-111.0,-111.0,-111.0
1668719011754286527,-111.0,-111.0,-111.0
1668719011788627862,-111.0,-111.0,-111.0
1668719011811193943,-111.0,-111.0,-111.0
1668719011834598302,-111.0,-111.0,-111.0
1668719011858749628,-111.0,-111.0,-111.0
1668719011883611917,-111.0,-111.0,-111.0
1668719011907444953,-111.0,-111.0,-111.0
1668719011930362701,-111.0,-111.0,-111.0
1668719011953366518,-111.0,-111.0,-111.0
1668719011976312637,-111.0,-111.0,-111.0
1668719012000221014,-111.0,-111.0,-111.0
1668719012023397922,-111.0,-111.0,-111.0
1668719012048149347,-111.0,-111.0,-111.0
1668719012073023080,-111.0,-111.0,-111.0
1668719012097247123,-111.0,-111.0,-111.0
1668719012122904777,-111.0,-111.0,-111.0
1668719012148746490,-111.0,-111.0,-111.0
1668719012175047397,-111.0,-111.0,-111.0
1668719012200309514,-111.0,-111.0,-111.0
1668719012226328849,-111.0,-111.0,-111.0
1668719012251932859,-111.0,-111.0,-111.0
1668719012277393341,-111.0,-111.0,-111.0
1668719012302770137,-111.0,-111.0,-111.0
1668719012328048706,-111.0,-111.0,-111.0
1668719012353003025,-111.0,-111.0,-111.0
1668719012379092931,-111.0,-111.0,-111.0
1668719012404130458,-111.0,-111.0,-111.0
1668719012429589509,-111.0,-111.0,-111.0
1668719012454962015,-111.0,-111.0,-111.0
1668719012479412794,-111.0,-111.0,-111.0
1668719012505499124,-111.0,-111.0,-111.0
1668719012530415296,-111.0,-111.0,-111.0
1668719012556607007,-111.0,-111.0,-111.0
1668719012581468820,-111.0,-111.0,-111.0
1668719012606577157,-111.0,-111.0,-111.0
1668719012632534265,-111.0,-111.0,-111.0
1668719012659048795,0.11938562628627403,0.5744682928082676,0.007530030115269474
1668719012684122800,0.1339290785179807,0.5642850797893764,0.0018648828339362911
1668719012709245681,0.1512902563866453,0.5879263292834757,0.02121360564987817
1668719012735352277,0.17159798645372284,0.5932186081479974,0.022361835333787137
1668719012760887145,0.18276182124786916,0.5966984218307657,0.024956681423383822
1668719012785580873,0.20491037417864894,0.5996926244760109,0.02375451344278342
1668719012811731815,0.21621062355529805,0.5989394032976567,0.023486586065451707
1668719012832347869,-111.0,-111.0,-111.0
1668719012854731798,0.24317887677327638,0.589811870005261,0.020289433406928032
1668719012877997159,0.26999310928264975,0.5877835994310553,0.03428817425809674
1668719012901219844,0.27453754382216705,0.594677859061637,0.01953837176523919
1668719012926583766,0.28873719753468435,0.5978993312355666,0.023084032849958944
1668719012949960708,0.2966801285532733,0.5976035520201071,0.02175209150511089
1668719012973644256,0.31355931508498985,0.5998240744139763,0.025779123719604762
1668719012998435258,0.3261925239730052,0.6000048461077909,0.024426506822945043
1668719013022104263,0.3440389626772663,0.5964868653141557,0.025015271630426685
1668719013045539140,0.354672828588399,0.5992298751850897,0.024319206637356188
1668719013070019006,0.3687540044456568,0.6013555360644393,0.02478776667659239
1668719013093313455,0.3787604077910249,0.5984049352247727,0.025710682370595483
1668719013116999864,0.39094799162248645,0.6016773018425278,0.02716543940175119
1668719013140498161,0.40369122168298865,0.6019399617674899,0.024516828388382466
1668719013165383577,0.4180429269814779,0.6012370989370355,0.026924764771756923
1668719013190490961,0.43042089881503265,0.6017618379482531,0.026939455645294454
1668719013214203834,0.4286239977073768,0.6231797028195885,0.03331702413210614
1668719013240495204,0.4565523587696352,0.5967677712122818,0.02515817769707457
1668719013264891862,0.47754691375411457,0.5809460078370834,0.0034584518319172117
1668719013289097547,-111.0,-111.0,-111.0
1668719013313826084,0.5053170134282761,0.5906166760687336,0.03814726336448652
1668719013341711044,0.5130111279823293,0.5995414343629032,0.02610993782592273
1668719013364517211,0.5220897060021145,0.5958830163774304,0.024732720796897378
1668719013389450073,0.5347307781597403,0.5998079840413332,0.028524351316171943
1668719013414060354,0.5321557783286486,0.615404335252956,0.03268338963699485
1668719013439169168,0.5468677799373927,0.6147711287738987,0.03150172081608433
1668719013463890790,0.5599731497116752,0.6147130686197471,0.032762680496756784
1668719013489330291,0.5719151057885838,0.6149027245478828,0.03041763914101755
1668719013514993429,0.5888226375595733,0.6151705624141941,0.032529763125393095
1668719013541072607,0.5990180894540318,0.6173769162900747,0.028651432566354367
1668719013567074537,0.6247461580544028,0.5996686093420122,0.026124410124518865
1668719013592187643,0.6504819875777579,0.5955733985798894,0.018956254368089252
1668719013617688417,0.643597374240311,0.612754724208368,0.02711625668824743
1668719013643649578,0.6693321460804104,0.5950270995374363,0.02628231936713644
1668719013669239282,0.6794780682046306,0.5939854865150259,0.02553779145798991
1668719013695469856,0.6896245548584833,0.5915981474836552,0.024353270308080023
1668719013722038984,0.6987199581322726,0.5921762741631328,0.023430623018296105
1668719013749259471,0.7083466566628319,0.5964538970652135,0.025212373728109787
1668719013774091720,0.7270174191216201,0.59591874652073,0.025428120824573432
1668719013799964427,0.737888451611734,0.5982452379598219,0.025751330573070913
1668719013824807167,0.7619524879166164,0.6060302184966841,0.02217245824393883
1668719013849976301,0.7731877418285601,0.5956538648601617,0.021293372548544708
1668719013877263545,0.7761549538484924,0.5927417469624756,0.02559298977749019
1668719013901995182,0.7888580581524735,0.5919773079308206,0.02848846390889817
1668719013925761699,0.7957605621766798,0.5961785894304062,0.026213284383424042
1668719013951052904,0.7910902518717635,0.5944143222381314,0.03469659798533226
1668719013976521492,0.7835067921049961,0.5933135478040594,0.03428267395933583
1668719014002423763,0.7760363303340778,0.5795578230836799,0.035717791480304954
1668719014028578996,0.7744879004409487,0.5955878101602146,0.027909605068564807
1668719014053585052,0.7715857300169018,0.5904400739789906,0.026726726211866926
1668719014077335119,0.7807712655796016,0.5982579746830606,0.027087131695524132
1668719014102138042,0.7791193418439026,0.5922685856304664,0.023193413254581498
1668719014127430200,0.7706673143891375,0.5921511990234581,0.025476106521960515
1668719014152214288,0.7785136858574393,0.594757860982693,0.022226646281570162
1668719014177556753,0.7776461509292243,0.5945573084329929,0.02051394707250251
1668719014202866315,0.7765111543799821,0.5977482454878706,0.021751417033702723
1668719014227855443,0.7773785858672994,0.5979494105592983,0.023463332953531868
1668719014255140304,0.7768476853252629,0.5986474427086966,0.025661940978223687
1668719014279826641,0.7734530480320557,0.598342351711631,0.02203782494839679
1668719014305735588,0.772923318094541,0.5990412183855823,0.024238728100414417
1668719014331271171,0.772923318094541,0.5990412183855823,0.024238728100414417
1668719014356272459,0.7697954157621096,0.605217973642266,0.025003037702650895
1668719014381924152,0.7678699711104797,0.6026306778743905,0.02405576172507412
1668719014406837224,0.7670009008285212,0.6024335308690488,0.02234836297088823
1668719014431159496,0.7667432871012207,0.6058197024419345,0.025293366445089435
1668719014456142663,0.7648167565415047,0.6032358084307358,0.024347801306669973
1668719014482628345,0.7622969756476966,0.6069243415180398,0.0260797136658049
1668719014506932973,0.7589751357878313,0.6048499165242097,0.02563619220686218
1668719014532567024,0.7575666411985877,0.6015592579713803,0.0224823130673101
1668719014554505586,0.755052832561914,0.6052652948622248,0.02422801460923866
1668719014578679800,0.7559236671003403,0.60545696065403,0.025929253470138563
1668719014601606369,0.7539342433438638,0.6084558438268436,0.025467542919135906
1668719014624594449,0.7520019459260235,0.6058761910898104,0.024523096597415504
1668719014648041963,0.7473195165857686,0.6103893174910545,0.02826789504701458
1668719014670569181,0.7445122986290028,0.607623662122897,0.025627898761999286
1668719014696577072,0.7475607452771861,0.6070050974918282,0.02532889978089474
1668719014721042156,0.7323859164970171,0.5976814847062687,0.025655793168011913
1668719014743548393,0.7311768173676597,0.5981675989592471,0.026949456756805098
1668719014766219854,0.7300461220702683,0.597162333622036,0.026705054594298037
1668719014787861824,0.7298356410215789,0.5971477201135439,0.028045162813229295
1668719014807581663,0.7268804396827381,0.5971226774189579,0.02556400519114317
1668719014828663587,0.7258651703694482,0.5962597856395051,0.025631113439743603
1668719014851664066,0.7245389794767391,0.5966035047115312,0.02661416343026392
1668719014873304128,0.7213877750778979,0.5979293061879092,0.025360765890319138
1668719014894225835,0.719255907815294,0.6001315337276898,0.025405638306504837
1668719014915657043,0.7148776386751282,0.597872102171007,0.025228420196713425
1668719014936602830,0.7130497198475967,0.5988545565635954,0.02298985555979822
1668719014958194017,0.7107037198145845,0.5956235683548833,0.023707567478180834
1668719014979713678,0.7074147956234714,0.5954650682014365,0.023622465514830496
1668719015000753164,0.7063437340706143,0.597434281620996,0.023757900295160884
1668719015021563291,0.7049957940761656,0.5964236661188436,0.024859296223217947
1668719015042026519,0.6935788101020135,0.6088606094470874,0.02142817438361556
1668719015067580699,0.702907736502376,0.5957891786161468,0.023475197481382017
1668719015090538024,0.7006832476971564,0.592679986658807,0.024503241651618487
1668719015116159677,0.6995484595872145,0.5943962673039009,0.024597961233332563
1668719015139910936,0.6964852610309916,0.5917884487530902,0.023436727114698658
1668719015162042617,0.6951552661834604,0.5921366236962042,0.024426358070047876
1668719015184637784,0.6953502617056676,0.5935046113212518,0.023530751247338166
1668719015209919691,0.6942051457609758,0.5925070766196702,0.023286703928958274
1668719015235060930,0.6941930709411233,0.589789690714714,0.022947109499426164
1668719015260611534,0.689441389456491,0.5929460344148427,0.02558913486704919
1668719015284807682,0.687728704602681,0.5909810307095155,0.02161781577474805
1668719015309168338,0.6875466823301088,0.5923289643206097,0.022854390805849802
1668719015334569931,0.6853259046958783,0.5946619692567887,0.023205628757626367
1668719015359613656,0.6841769822799801,0.5936673180454041,0.022962095974715272
1668719015386978626,0.6816440933917033,0.5958555007540822,0.025714491390741685
1668719015412547588,0.6808301913878851,0.5949839299904537,0.024429260655504166
1668719015437062025,0.6792976849497756,0.595333409658433,0.02677617675670187
1668719015461262226,0.6772684603610956,0.5935744848991845,0.02690914499849053
1668719015486703157,0.6773116810358111,0.5921144987962784,0.025361068926162664
1668719015512169837,0.6732877288615674,0.5940473569110787,0.024384296220680366
1668719015537841320,0.6739207963687043,0.5962704064690192,0.026910505530773326
1668719015564801931,0.6718149240449582,0.5956570535825783,0.025525332894914907
1668719015591166734,0.6724980775380904,0.5950353058552048,0.027970620158742715
1668719015616510629,0.6716841538785776,0.5941604321499082,0.02668569019049437
1668719015642048835,0.668292146177574,0.5927926084466811,0.02645971925376848
1668719015667667627,0.6681149618112194,0.5941401869742053,0.02770025835709629
1668719015692299604,0.6536842811138187,0.6119996072843201,0.028882446846017186
1668719015716513395,0.6504469702305998,0.6136627372908955,0.027527984419748783
1668719015743430614,0.6504469702305998,0.6136627372908955,0.027527984419748783
1668719015766672134,0.6450786831299572,0.6131318979780739,0.026898911344536754
1668719015789679527,0.6446627380959639,0.6138535577667097,0.026754730668199507
1668719015813758373,0.6450786831299572,0.6131318979780739,0.026898911344536754
1668719015836819410,0.6450786831299572,0.6131318979780739,0.026898911344536754
1668719015859855413,0.6421147633717164,0.6123802570102469,0.027334476473976257
1668719015883049249,0.640777002563576,0.613692766562761,0.025908805683833712
1668719015907228231,-111.0,-111.0,-111.0
1668719015931828975,0.6403590323432595,0.6144193032881267,0.02576448165377006
1668719015955482959,-111.0,-111.0,-111.0
1668719015979237318,-111.0,-111.0,-111.0
1668719016001886129,-111.0,-111.0,-111.0
1668719016026473760,-111.0,-111.0,-111.0
1668719016051481962,0.6519854660951728,0.5988506655318312,0.022129835897522807
1668719016076371431,0.6490997781344329,0.5960993424705123,0.01950226091005648
1668719016102640151,0.6373606110846022,0.6009512508046965,0.029938708645790058
1668719016126182794,0.6394033747020453,0.5880150159130413,0.03758213417434272
1668719016150999307,0.6349434991645448,0.5876224616532836,0.03824546668180485
1668719016176199197,0.6310946215479283,0.5983558429361943,0.0271152992803874
1668719016201173305,0.6280589355146927,0.5998057498001165,0.026196719294736714
1668719016226007223,0.6267320793885274,0.6001757434111914,0.02720991991578058
1668719016250613927,0.6246011818286971,0.5995919948854469,0.025820004825155125
1668719016274053335,0.6260116791376305,0.5994420186271335,0.024871082406802775
1668719016296526193,0.62023797734911,0.6014140991647233,0.02591773817635062
1668719016319090604,0.6069343452359616,0.6157203376573815,0.027128298383784846
1668719016342005014,0.6069343452359616,0.6157203376573815,0.027128298383784846
1668719016367262363,0.6054421933054723,0.6153635193382601,0.027346062594635713
1668719016391079664,0.6026413295756223,0.6162535608647305,0.026150378187031195
1668719016415362119,0.6022296279502479,0.6132850809892259,0.024447571979611
1668719016437671899,0.5996538397074757,0.6155458613192177,0.026586723234346396
1668719016460717201,0.5986051753319485,0.6144101337811843,0.026947699802740255
1668719016483343362,0.5942808823677055,0.6186939813601358,0.02753431112106005
1668719016507474422,0.5917374174585456,0.6172059231217183,0.028113932469139232
1668719016531507968,0.5902403095303934,0.6168605209289533,0.02833355097638335
1668719016558158874,0.5887419933842016,0.6165177815781877,0.02855404379220379
1668719016583845853,0.5876662193634108,0.6191354653200732,0.030479621012660052
1668719016609616041,0.5844233566664685,0.6208114023859703,0.0291505204930064
1668719016632815837,-111.0,-111.0,-111.0
1668719016658394813,0.5808298034829773,0.6181794890524294,0.03008894017542111
1668719016683705329,0.5754688907223675,0.6213224206019272,0.031051598617926144
1668719016709258556,0.5765397151301153,0.6187045383635399,0.029119580922829093
1668719016734933853,0.5750378012379876,0.6183704234602904,0.029341058069159674
1668719016760367393,0.5732947581258548,0.6203803799493027,0.027792685150518904
1668719016785405158,0.5707476434935683,0.6188933956178397,0.02837273129301819
1668719016809605836,0.5664583379333468,0.6194127288650749,0.027405456460613282
1668719016834607839,0.567134568077999,0.6200235309411251,0.030887258749277724
1668719016859596729,0.5682006947331353,0.6174060225773257,0.028952753120061552
1668719016884855031,0.5628474769208647,0.6205408764574574,0.029922702478839564
1668719016909812688,0.5613646919089768,0.616434586599736,0.028565567514184934
1668719016934113740,0.5598563624956459,0.6161104426086524,0.028788197093346672
1668719016959348201,0.5579890875978296,0.6152366083807863,0.032849587086120506
1668719016984006881,0.5545078955079763,0.6192412401313785,0.02976169705586544
1668719017009291172,0.55473804087265,0.6169207023016018,0.03152883949258361
1668719017034181594,0.5504501610202341,0.6174343603095321,0.030565374955354926
1668719017059238910,0.5504501610202341,0.6174343603095321,0.030565374955354926
1668719017084358453,0.5504501610202341,0.6174343603095321,0.030565374955354926
1668719017109171390,0.5472005165588476,0.6191181911571385,0.029247046099712477
1668719017134182691,0.5461631617990671,0.6179443425695025,0.029602948641904814
1668719017159213542,0.5446503111826766,0.6176312154491086,0.02982744568730479
1668719017184902667,0.5456882400821293,0.6188055972846586,0.02947225089623159
1668719017209240913,0.5431363469541945,0.6173207163137759,0.0300528117880959
1668719017234810590,0.5431363469541945,0.6173207163137759,0.0300528117880959
1668719017259550571,0.5431363469541945,0.6173207163137759,0.0300528117880959
1668719017284465074,0.5421183633859065,0.6123500399099482,0.02882160045307689
1668719017309397220,0.5403633367167674,0.6181389868984696,0.028866037115535433
1668719017334298372,0.5377980416286303,0.6204485295867946,0.0310374315462297
1668719017358708381,0.5362968805772869,0.6163431075196042,0.029671963804816664
1668719017383899688,0.5378133764073135,0.6166500638862631,0.02944645140731343
1668719017409273862,0.5362968805772869,0.6163431075196042,0.029671963804816664
1668719017434321403,0.5362968805772869,0.6163431075196042,0.029671963804816664
1668719017459102869,0.5454097940817869,0.603520553974205,0.02830860092631672
1668719017483637571,0.5324792867658598,0.6197693798004356,0.03043461852253257
1668719017507373571,0.5320100270973179,0.6168470855754874,0.028711609736146063
1668719017532548904,0.542544949512375,0.6049517121680176,0.02603225778796873
1668719017557068109,0.5320100270973179,0.6168470855754874,0.028711609736146063
1668719017582208395,0.5424125973520151,0.5995779559037913,0.027013715026859533
1668719017606920957,0.5299477109224912,0.6144744407976656,0.02942198339880477
1668719017634170770,0.5368529033377687,0.6043308972967093,0.027078790799746896
1668719017658517360,0.5359715522905203,0.5982047508359885,0.02570889616610236
1668719017683068513,0.5350044343885721,0.5999877809324952,0.026113419518796182
1668719017707004785,0.5241431425763344,0.6146661998304542,0.028687698020102226
1668719017731487035,0.5336795253718666,0.6003855933187427,0.027155073950237384
1668719017756677389,0.5338039850628459,0.6019366148701272,0.027685368537684777
1668719017780914068,0.531361978490548,0.6012067632828527,0.027036633427638616
1668719017806338548,0.5188182641244611,0.6177726761045281,0.029682888011516837
1668719017832567214,0.529313825472643,0.6022187808915175,0.027296919000627636
1668719017857671022,0.5268551621774689,0.604397043632481,0.027329080094582802
1668719017882703304,0.5259411193110342,0.6007616898114613,0.025674068117626177
1668719017908603191,0.5259411193110342,0.6007616898114613,0.025674068117626177
1668719017933507919,0.5237186760064964,0.6017808229865216,0.02731031038605049
1668719017957799911,0.5238529153152064,0.600440262702244,0.026034754668415906
1668719017982552528,0.5225280335521716,0.6008406977644497,0.027079758052234396
1668719018007448673,0.5203112745091614,0.5989735354292574,0.026910892097728695
1668719018032581567,0.5191823298623539,0.6007418574132143,0.02702536459151434
1668719018058141231,0.5174016105540165,0.5990674443172354,0.02473499385832585
1668719018082217931,0.5148788690494208,0.5985511522933684,0.027220876368857713
1668719018107282876,0.515597130348594,0.5979485185811378,0.02800366130824054
1668719018132615566,0.5111890488663963,0.5984577493583597,0.028253513096935867
1668719018157655239,0.5126255139628473,0.598220532411468,0.02729601509857859
1668719018182822227,0.5094150991815918,0.5996457367187068,0.026107800650500095
1668719018208019971,0.5083892915134796,0.5987151921321903,0.0261694997594704
1668719018234088182,0.5082194391692182,0.598707105835327,0.025877174916975772
1668719018259067296,0.5157353912541025,0.5901201193592069,0.03877971082266151
1668719018283039808,0.5129154228526174,0.595528878176852,0.03694980299464589
1668719018307817697,0.5069081111985142,0.5949808860988501,0.03932412995383734
1668719018333487033,0.504200888483052,0.5919976984120897,0.03728074016208948
1668719018358652114,0.5062653547776018,0.593576834470401,0.037450686104659466
1668719018383932590,0.504200888483052,0.5919976984120897,0.03728074016208948
1668719018410297155,-111.0,-111.0,-111.0
1668719018436643838,0.4996069618708991,0.5916251826219617,0.03795303119919805
1668719018462499856,-111.0,-111.0,-111.0
1668719018487678289,-111.0,-111.0,-111.0
1668719018513577699,0.48562677885341227,0.5816773872851893,0.0034924736746281227
1668719018538424015,0.4835669802056842,0.5827603869958061,0.0056208763858103345
1668719018563484191,0.48221222100970884,0.5833440089707281,0.00625589078849701
1668719018588254451,0.4814892584794765,0.5802331296654822,0.004702272673605512
1668719018612996339,0.4791920496996922,0.5806307149858676,0.0036519466792229163
1668719018638335704,0.47713433127147353,0.5817160105572184,0.005780565544751432
1668719018663542270,0.47410910623722324,0.5789992558274738,0.0031744864191399066
1668719018688693046,0.47111063247457713,0.5799082363287219,0.003622850850508594
1668719018713918447,0.4701655598346136,0.5797193760022995,0.001935106364841361
1668719018739656448,0.467705944939224,0.5815948802555522,0.006398920662544783
1668719018764396429,0.4646744391969934,0.5788811616989109,0.003795929737268782
1668719018789353132,0.4646744391969934,0.5788811616989109,0.003795929737268782
1668719018814898967,0.4573428807027578,0.5964208950172716,0.024906183749747617
1668719018840426206,0.45613223131839986,0.5954933836928238,0.02467714572845207
1668719018865534543,0.437980577290119,0.6257633692635541,0.033086336437833194
1668719018890623807,0.43644083229821756,0.6255114531230086,0.03331825791784725
1668719018916369438,0.4347162559662283,0.6235877029723752,0.030164343551513918
1668719018942049503,0.43217839514738454,0.6259504517099518,0.03238860388629063
1668719018968444585,0.4306240206109272,0.6218284858290382,0.03097684863294809
1668719018992897987,0.42962931535851917,0.6244418468053999,0.03296896136888111
1668719019018644809,0.4279169404686158,0.6263856687688121,0.031459892593286055
1668719019043224096,0.4263749226856403,0.626138614591539,0.031692670155179334
1668719019069947957,0.4424614277221232,0.6008022196489707,0.027801441815324745
1668719019093513011,0.439237318732578,0.6022589935409403,0.026635538318940215
1668719019118110179,0.4369231929112015,0.6031215419885021,0.028209355234324437
1668719019142950057,0.43802462159712374,0.6013420156801509,0.02641060012149928
1668719019169866323,0.4356042156510038,0.6035427301868541,0.029280496030364308
1668719019194608211,0.43681091334118755,0.6004252019698327,0.026185771107432677
1668719019219268083,0.4346444178100452,0.602825699954577,0.026639664072567765
1668719019245008707,0.4321351720321185,0.6023208920999334,0.029163256655364147
1668719019268064737,0.42979849480832477,0.603200933853999,0.02906477365663362
1668719019294280767,0.4313635856834657,0.6000062206591052,0.0265321512233671
1668719019319201231,0.4288695173936336,0.6009114750532619,0.027827108443070903
1668719019343622446,0.42868817912850166,0.6009506831563445,0.027545992349540097
1668719019367723464,0.42765360381692863,0.5999979310134316,0.02760384115131476
1668719019392426490,0.4232899420168006,0.6018455136432417,0.027798015300345893
1668719019417471408,0.4222564712629145,0.6008904026093054,0.027856188067170492
1668719019442528009,0.4221177436334286,0.6023318464578789,0.02802136008995651
1668719019466943502,0.4178559545529492,0.6028445311897537,0.026920229345102825
1668719019493120670,0.4177599255407955,0.600136225817503,0.02657205932138946
1668719019517745494,0.41461486912853773,0.6028951091495612,0.026993790676771066
1668719019544430017,0.41468381008722943,0.6015782630657336,0.02401543325676491
1668719019569983482,0.41213968919109567,0.6036688526849475,0.026785782011838722
1668719019595755100,0.41026762183971643,0.6021195246513114,0.02431354632768066
1668719019621970415,0.4065910630286593,0.6021123629969072,0.027075017373294142
1668719019647571563,0.40430055662859976,0.6043142844142254,0.026882865052479638
1668719019673161983,0.4043976897869715,0.6029784891888705,0.02558122739571429
1668719019698719978,0.4021368568394432,0.6011148165234625,0.02541687759315049
1668719019724901199,0.39978381611354785,0.6021513894848047,0.026837407634407354
1668719019749988794,0.3944254680968752,0.6004040358634872,0.025898371560044698
1668719019774754524,0.3921328768594415,0.6026092856620492,0.025707097104560817
1668719019801828622,0.3899694789464839,0.6009788660294918,0.024526231833386144
1668719019826960563,0.389630049991634,0.5994992544781664,0.025366115964097432
1668719019851124525,0.3885118415632244,0.6013080574887917,0.025495702393091513
1668719019875515222,0.38408147564718625,0.6004231060772226,0.027036197790016606
1668719019897461175,0.384225008462869,0.6003908431393378,0.02563188732547085
1668719019920228719,0.3806949701942282,0.6003673542241764,0.02700255005051455
1668719019942934989,0.3796906101549444,0.5966574938579648,0.025303747123343778
1668719019967221975,0.3762674328807573,0.5993474870547254,0.027025353810921655
1668719019990921258,0.3765006900396359,0.5981099920142394,0.025836805629309335
1668719020016265869,0.3718493724857349,0.5998990229217139,0.027339133677920884
1668719020040457010,0.36961614786393104,0.6036493790695363,0.029125396278002286
1668719020061827659,0.36440733018903576,0.604784537765142,0.025304522943932744
1668719020082551956,0.3628815942671754,0.6023806841495,0.027604155815214127
1668719020103884458,0.3598677651227584,0.6025066170724588,0.02374411544495027
1668719020125889062,0.3577993555038581,0.6021440200574413,0.024152665642060343
1668719020147850275,0.3553678584232496,0.6043971783000971,0.025378623223680973
1668719020169164180,0.3532806379177655,0.602453276213106,0.025488427849973308
1668719020190331935,0.3496941331010056,0.601143336328156,0.02696555766652899
1668719020211384057,0.34757416722941264,0.6008255567960108,0.02569636797122795
1668719020234796524,0.34541062254775684,0.6016664613122013,0.02588168452333288
1668719020256082534,0.3439626403382028,0.5992812099853843,0.025092875780765134
1668719020277254343,0.3400240480789177,0.6012641552305782,0.023169336316636882
1668719020297656297,0.3387880697133269,0.60037525250983,0.02295289947312844
1668719020320246219,0.3364559322698489,0.6014241176387535,0.024411977873284373
1668719020341815471,0.3350032995189148,0.5976973795098646,0.025403217546911536
1668719020363164901,0.331530263761846,0.6004541264973215,0.025454068796780478
1668719020384347677,0.3283571915972798,0.5991599423554047,0.02423960842018907
1668719020405582189,0.3294014868240942,0.598666318908918,0.025421262539578625
1668719020427214384,0.3261442762948667,0.5944917799486341,0.023998468735123183
1668719020448281764,0.3250542397038207,0.5979039842469699,0.02444202789800756
1668719020470138549,0.32125685476961247,0.5993300707311235,0.026880878364953998
1668719020492073297,0.31797956962159596,0.5992534209294205,0.025438815886612735
1668719020516546726,0.31591747111521934,0.5988791219395677,0.02585757448341168
1668719020541039466,0.31355931508498985,0.5998240744139763,0.025779123719604762
1668719020563683986,0.3122595929005583,0.5976551839996282,0.02566736880394394
1668719020585448503,0.3078969092276861,0.5995168939472008,0.02590999091401175
1668719020608592987,0.3055973622139916,0.5963856983041202,0.02274531563126961
1668719020633774518,0.3021667929005746,0.5951730147150281,0.02437661781760986
1668719020658195734,0.29869320894872353,0.5979615659728678,0.024438495506091885
1668719020680965423,0.2963296632607458,0.5974296216358553,0.02559939753474766
1668719020704653978,0.2922122981434436,0.5965938482580051,0.021781707450369475
1668719020727055549,0.2908424530730795,0.5942641528835341,0.024228606085065274
1668719020750329256,0.28870463003996955,0.5939465278063696,0.022964558291167683
1668719020773448944,0.2830303656415788,0.5936521324048721,0.023107810863726548
1668719020796497106,0.28003590807199624,0.5937379242141797,0.02092503291517898
1668719020821794509,0.281031756029671,0.5960548596152788,0.02219840445860458
1668719020846835136,0.2777318612535548,0.5959854094121271,0.020750882247089368
1668719020872496843,0.27242585648813206,0.5956214141376248,0.021297747473979136
1668719020897708892,0.2639190337630503,0.5688256370057574,-7.485061157005492e-05
1668719020923521995,0.25782266546295285,0.5673058609383611,-0.0020666459414889387
1668719020950081348,0.2597540738870635,0.592218544457426,0.023751637639483812
1668719020975982904,0.2560098946396025,0.5923742348053187,0.024903518775304286
1668719021000714540,0.24884091359327792,0.5902457339003877,0.020005691220775678
1668719021026934623,0.24646660076965218,0.5912283000983574,0.019939486318970027
1668719021052372217,0.2442508826052718,0.589280957423672,0.021477678946405364
1668719021076271295,0.2610575689132655,0.5884700252718259,0.03759321396247549
1668719021101617336,-111.0,-111.0,-111.0
1668719021128416299,0.21129532776958587,0.6218462123528878,0.023691066320983653
1668719021154866933,0.20873160689756318,0.6203057291710989,0.024272471044767686
1668719021179172515,0.20873160689756318,0.6203057291710989,0.024272471044767686
1668719021204244852,0.20353616914885744,0.619192148472599,0.023710439461313765
1668719021227858781,0.1970309435598897,0.6225864802277876,0.02127828683412733
1668719021251353025,0.19515666289370195,0.6177998098215284,0.023656114666529025
1668719021275369167,0.21063038982171609,0.59295983945759,0.02348148452217553
1668719021298959970,0.20830728105652957,0.5910897671214372,0.023323929745745122
1668719021324400186,0.20494313146753773,0.5927020358714346,0.023667057845237607
1668719021349480390,0.2014177263536982,0.5912287241314401,0.023196657984330956
1668719021372169733,0.1980538118346417,0.5928449047992692,0.02354347862754965
1668719021394006967,0.19257377783834734,0.5924413976703072,0.023992768306757974
1668719021417799949,0.1878145130713658,0.5944516287693596,0.02387380607871318
1668719021441282033,0.1845032784557612,0.593198740951694,0.024129532524821348
1668719021463323831,0.18196017552924426,0.5914873112579278,0.02371883045283691
1668719021488846063,0.1775403304500772,0.5921020111353155,0.02412556212229089
1668719021514439105,0.17763147584805292,0.5920353861585885,0.022674527132061726
1668719021542149066,0.17321095812368506,0.5926504332515413,0.023082895411917877
1668719021566640615,0.16812651936921075,0.5888273281800599,0.02494698896223433
1668719021591368198,0.16483119365199222,0.5862524794655907,0.02386255438717712
1668719021616563558,0.15941863986558197,0.5870992635814526,0.02421653907893127
1668719021642968177,0.15379502378211707,0.5601126354746219,0.0021016069725994986
1668719021668089866,0.15092154589066514,0.5613545052113535,0.0027195471481777814
1668719021693403959,0.14703809824404937,0.5624330162762358,0.0016935613813092985
1668719021717336654,0.14231663206602352,0.5583979271919884,0.0024046177231575117
1668719021742630481,0.13843376370051214,0.5594854893987653,0.001383282230213539
1668719021767503261,0.1343081505400199,0.5614466934989711,0.0028259886782976687
1668719021792449712,0.1281882306007336,0.5600977833632228,0.0009407961902093129
1668719021817823171,0.12369794840426002,0.5552005975840311,-0.0008028187420998282
1668719021842924356,0.11920806435746778,0.5600338627451147,-0.00030497030526297484
1668719021867856740,0.11611685974446577,0.5621851691592945,0.002798789938010718
1668719021893265485,0.11363495812896887,0.5606167288043495,0.004397213687528787
1668719021918030023,0.11138666983103505,0.5581770553612304,0.0035315424852444665
1668719021942579030,-111.0,-111.0,-111.0
1668719021967904567,-111.0,-111.0,-111.0
1668719021993151664,-111.0,-111.0,-111.0
1668719022018619298,-111.0,-111.0,-111.0
1668719022044099330,-111.0,-111.0,-111.0
1668719022069401264,-111.0,-111.0,-111.0
1668719022094961643,-111.0,-111.0,-111.0
1668719022121780395,-111.0,-111.0,-111.0
1668719022146520376,-111.0,-111.0,-111.0
1668719022172078371,-111.0,-111.0,-111.0
1668719022197859048,-111.0,-111.0,-111.0
1668719022223201274,-111.0,-111.0,-111.0
1668719022248579740,-111.0,-111.0,-111.0
1668719022275074720,-111.0,-111.0,-111.0
1668719022301131963,0.07686460131700382,0.5834909849523797,0.03796379184567334
1668719022326709032,0.07133793256618211,0.5873819414223533,0.0358637586537136
1668719022352750539,0.06628893631152694,0.5877040327252313,0.03463258510463251
1668719022378453254,0.0612427072738811,0.5873787458732421,0.03533479764034755
1668719022403375387,-111.0,-111.0,-111.0
1668719022429291725,0.0617295207696799,0.5838076486596383,0.03620656641803142
1668719022454391717,0.053901629492006976,0.5854294715306857,0.03585752885808187
1668719022476992845,-111.0,-111.0,-111.0
1668719022500905752,-111.0,-111.0,-111.0
1668719022525283336,-111.0,-111.0,-111.0
1668719022551443099,-111.0,-111.0,-111.0
1668719022576196432,-111.0,-111.0,-111.0
1668719022600552797,0.022939403016928386,0.5890040239305949,0.03339198679182506
1668719022622455120,-111.0,-111.0,-111.0
1668719022646554708,0.02065054907856843,0.5867352996449833,0.03515545303684152
1668719022668183803,-111.0,-111.0,-111.0
1668719022690645694,0.01637266941428448,0.5884181446449527,0.03590056294922165
1668719022713206529,-111.0,-111.0,-111.0
1668719022736250162,-111.0,-111.0,-111.0
1668719022762738943,0.008934465031195002,0.5871103891437215,0.03447815172418101
1668719022788582086,-111.0,-111.0,-111.0
1668719022813674449,-111.0,-111.0,-111.0
1668719022839277029,-0.0008096282447683152,0.5835318360690634,0.03482079960315472
1668719022864367246,-0.005101333328553738,0.585211185655602,0.035569945831407976
1668719022889178037,-0.012545643055642796,0.5832611979220573,0.03609634354551453
1668719022914052248,-0.017701663848380466,0.5835805706206836,0.03485355028770624
1668719022938984394,-0.01999997328223321,0.5813114252779981,0.03662427784400338
1668719022964020967,-0.02883265226843369,0.5815868883624686,0.03427854810059129
1668719022990169286,-0.029955518661632367,0.5862548030269591,0.03720666620013719
1668719023015152692,-0.03830105906106872,0.5829486290082218,0.03573869815694719
1668719023040174961,-0.04114851033322443,0.5849011181970186,0.034675138890191505
1668719023066148281,-0.04915534612582781,0.5865400019828135,0.034323522625490294
1668719023090189456,-0.045978427704699135,0.5901654581824738,0.034549309603963324
1668719023117330074,-0.08316804093600912,0.5939398294666753,0.006661774719153161
1668719023141434192,-111.0,-111.0,-111.0
1668719023166340112,-111.0,-111.0,-111.0
1668719023191602230,-111.0,-111.0,-111.0
1668719023217167615,-111.0,-111.0,-111.0
1668719023243000268,-111.0,-111.0,-111.0
1668719023268067359,-111.0,-111.0,-111.0
1668719023294042348,-111.0,-111.0,-111.0
1668719023319393634,-111.0,-111.0,-111.0
1668719023345187187,-111.0,-111.0,-111.0
1668719023371128082,-111.0,-111.0,-111.0
1668719023394870042,-111.0,-111.0,-111.0
1668719023420760631,-111.0,-111.0,-111.0
1668719023446000337,-111.0,-111.0,-111.0
1668719023470819234,-111.0,-111.0,-111.0
1668719023495567560,-111.0,-111.0,-111.0
1668719023521360874,-111.0,-111.0,-111.0
1668719023546282529,-111.0,-111.0,-111.0
1668719023572815179,-111.0,-111.0,-111.0
1668719023597225904,-111.0,-111.0,-111.0
1668719023622203826,-111.0,-111.0,-111.0
1668719023646956682,-111.0,-111.0,-111.0
1668719023671901941,-111.0,-111.0,-111.0
1668719023697073221,-111.0,-111.0,-111.0
1668719023722239017,-111.0,-111.0,-111.0
1668719023748262166,-111.0,-111.0,-111.0
1668719023773351192,-111.0,-111.0,-111.0
1668719023798958778,-111.0,-111.0,-111.0
1668719023824803829,-111.0,-111.0,-111.0
1668719023850046634,-111.0,-111.0,-111.0
1668719023875634670,-111.0,-111.0,-111.0
1668719023901206493,-111.0,-111.0,-111.0
1668719023926535129,-111.0,-111.0,-111.0
1668719023951129436,-111.0,-111.0,-111.0
1668719023976766824,-111.0,-111.0,-111.0
1668719024001259565,-111.0,-111.0,-111.0
1668719024023716449,-111.0,-111.0,-111.0
1668719024045255184,-111.0,-111.0,-111.0
1668719024066849470,-111.0,-111.0,-111.0
1668719024087661027,-111.0,-111.0,-111.0
1668719024109110355,-111.0,-111.0,-111.0
1668719024129272222,-111.0,-111.0,-111.0
1668719024151120424,-111.0,-111.0,-111.0
1668719024172215461,-111.0,-111.0,-111.0
1668719024193419694,-111.0,-111.0,-111.0
1668719024213952541,-111.0,-111.0,-111.0
1668719024235358476,-111.0,-111.0,-111.0
1668719024257148265,-111.0,-111.0,-111.0
1668719024278770446,-111.0,-111.0,-111.0
1668719024301815986,-111.0,-111.0,-111.0
1668719024324238300,-111.0,-111.0,-111.0
1668719024344970941,-111.0,-111.0,-111.0
1668719024368908643,-111.0,-111.0,-111.0
1668719024392493009,-111.0,-111.0,-111.0
1668719024415912628,-111.0,-111.0,-111.0
1668719024436750173,-111.0,-111.0,-111.0
1668719024458866119,-111.0,-111.0,-111.0
1668719024480349540,-111.0,-111.0,-111.0
1668719024501175403,-111.0,-111.0,-111.0
1668719024523015499,-111.0,-111.0,-111.0
1668719024544227361,-111.0,-111.0,-111.0
1668719024565222740,-111.0,-111.0,-111.0
1668719024585723876,-111.0,-111.0,-111.0
1668719024606923580,-111.0,-111.0,-111.0
1668719024628141403,-111.0,-111.0,-111.0
1668719024649000883,-111.0,-111.0,-111.0
1668719024672464609,-111.0,-111.0,-111.0
1668719024697121858,-111.0,-111.0,-111.0
1668719024722920417,-111.0,-111.0,-111.0
1668719024748010396,-111.0,-111.0,-111.0
1668719024773772001,-111.0,-111.0,-111.0
1668719024798835515,-111.0,-111.0,-111.0
1668719024823344230,-111.0,-111.0,-111.0
1668719024849082946,-111.0,-111.0,-111.0
1668719024873288631,-111.0,-111.0,-111.0
1668719024897948980,-111.0,-111.0,-111.0
1668719024923809766,-111.0,-111.0,-111.0
1668719024949608564,-111.0,-111.0,-111.0
1668719024974540948,-111.0,-111.0,-111.0
1668719025000018358,-111.0,-111.0,-111.0
1668719025025536537,-111.0,-111.0,-111.0
1668719025050129413,-111.0,-111.0,-111.0
1668719025074850320,-111.0,-111.0,-111.0
1668719025100617885,-111.0,-111.0,-111.0
1668719025125249624,-111.0,-111.0,-111.0
1668719025150172233,-111.0,-111.0,-111.0
1668719025175076961,-111.0,-111.0,-111.0
1668719025200462341,-111.0,-111.0,-111.0
1668719025226006507,-111.0,-111.0,-111.0
1668719025251064300,-111.0,-111.0,-111.0
1668719025276630163,-111.0,-111.0,-111.0
1668719025301752567,-111.0,-111.0,-111.0
1668719025327435731,-111.0,-111.0,-111.0
1668719025353185892,-111.0,-111.0,-111.0
1668719025379767894,-111.0,-111.0,-111.0
1668719025404152870,-111.0,-111.0,-111.0
1668719025429054021,-111.0,-111.0,-111.0
1668719025454446792,-111.0,-111.0,-111.0
1668719025479074954,-111.0,-111.0,-111.0
1668719025504684448,-111.0,-111.0,-111.0
1668719025530133247,-111.0,-111.0,-111.0
1668719025555467844,-111.0,-111.0,-111.0
1668719025580553293,-111.0,-111.0,-111.0
1668719025605840444,-111.0,-111.0,-111.0
1668719025631113529,-111.0,-111.0,-111.0
1668719025656532764,-111.0,-111.0,-111.0
1668719025680195808,-111.0,-111.0,-111.0
1668719025703837633,-111.0,-111.0,-111.0
1668719025727252960,-111.0,-111.0,-111.0
1668719025750184774,-111.0,-111.0,-111.0
1668719025774487257,-111.0,-111.0,-111.0
1668719025800032615,-111.0,-111.0,-111.0
1668719025824137449,-111.0,-111.0,-111.0
1668719025848957300,-111.0,-111.0,-111.0
1668719025874412536,-111.0,-111.0,-111.0
1668719025899377107,-111.0,-111.0,-111.0
1668719025924708604,-111.0,-111.0,-111.0
1668719025949840307,-111.0,-111.0,-111.0
1668719025975039958,-111.0,-111.0,-111.0
1668719026000020503,-111.0,-111.0,-111.0
1668719026024562835,-111.0,-111.0,-111.0
1668719026050288915,-111.0,-111.0,-111.0
1668719026075176715,-111.0,-111.0,-111.0
1668719026098202705,-111.0,-111.0,-111.0
1668719026121385812,-111.0,-111.0,-111.0
1668719026144432067,-111.0,-111.0,-111.0
1668719026167557477,-111.0,-111.0,-111.0
1668719026190357685,-111.0,-111.0,-111.0
1668719026215880155,-111.0,-111.0,-111.0
1668719026239886760,-111.0,-111.0,-111.0
1668719026262596845,-111.0,-111.0,-111.0
